name,val,lat,lon
Cut   MT,190000.0,48.4886,-113.2499
Thompson   MT,190000.0,47.674,-115.0462
Anaconda   MT,190000.0,46.0084,-113.4757
Glendive   MT,190000.0,47.1592,-105.026
Condon   MT,190000.0,47.4158,-113.6339
Turner   MT,190000.0,48.647,-108.4802
Gallatin   MT,190000.0,45.1938,-111.2445
Musselshell   MT,190000.0,46.3897,-107.964
Biddle   MT,190000.0,45.0167,-105.0565
Shelby   MT,190000.0,48.5052,-111.6631
