name,val,lat,lon
Roslyn   SD,2.632E7,45.500564,-97.540105
Benton   LA,3.207E7,32.697617,-93.69095
Atlanta   GA,4.41E7,33.831963,-84.385145
Troy   MI,5.905E7,42.562696,-83.179947
Gladstone   ND,2.665E7,46.815162,-102.527379
Ringwood   OK,3.887E7,36.375293,-98.270639
Secor   IL,8.537E7,40.722402,-89.127065
Fircrest   WA,3.269E7,47.22788,-122.53503
Triplett   NC,4.835E7,36.181685,-81.489649
Lac   WI,4.836E7,45.97175,-89.890078
Greensboro   VT,1.602E7,44.548488,-72.252478
Wilbraham   MA,3.219E7,42.124506,-72.446415
Commerce   CO,2.908E7,39.825875,-104.911349
Georgetown   KY,5.504E7,38.211712,-84.556179
Wilson   MI,5.905E7,45.664855,-87.399734
Randolph   AL,3.798E7,32.888834,-86.90701
Kearny   AZ,1.899E7,33.059443,-110.91227
Valparaiso   IN,4.646E7,41.475661,-87.075866
Stanley   NC,4.835E7,35.351565,-81.095921
Hazelgreen   WV,4.44E7,39.063075,-80.980578
Robson   WV,4.44E7,38.097263,-81.248758
Reedsville   PA,9.806E7,40.672189,-77.611589
Altavista   VA,5.66E7,37.122162,-79.291145
Sparks   NV,7190000.0,39.550229,-119.717754
Old   NY,1.0868E8,40.764991,-73.457481
Elbe   WA,3.269E7,46.766607,-122.150344
New   NH,1.457E7,43.414501,-71.985674
Saginaw   MN,5.974E7,46.879462,-92.391723
Huntington   VT,1.602E7,44.322655,-72.996432
Ninety   SC,2.41E7,34.165198,-82.029185
Orienta   OK,3.887E7,36.265981,-98.506271
Lake   NY,1.0868E8,42.073271,-74.212338
Tallmadge   OH,6.854E7,41.097492,-81.425966
Hardy   KY,5.504E7,37.602652,-82.255236
Orchard   MI,5.905E7,42.598109,-83.395536
Laporte   CO,2.908E7,40.634683,-105.148757
Willow   CA,1.0137E8,40.938894,-123.631062
Lakeridge   VA,5.66E7,38.68328,-77.305221
Bowman   ND,2.665E7,46.173316,-103.401965
Coleman   VA,5.66E7,37.488659,-79.315757
Saint   AK,1.371E7,56.60324,-169.547257
Silverdale   WA,3.269E7,47.692017,-122.716106
Colorado   CO,2.908E7,38.698073,-104.85051
Vinemont   AL,3.798E7,34.262121,-86.912512
Punta   FL,5.589E7,26.823981,-81.954712
76850   TX,1.1383E8,30.879689,-99.299552
Wellsville   NY,1.0868E8,42.110757,-77.94191
Hyde   MA,3.219E7,42.253989,-71.126052
Laytonville   CA,1.0137E8,39.667811,-123.486862
Kirwin   KS,4.912E7,39.671716,-99.120378
Colony   OK,3.887E7,35.344844,-98.670674
Chicago   IL,8.537E7,41.995145,-87.808215
Orlando   KY,5.504E7,37.373405,-84.252801
Melvin   MI,5.905E7,43.19304,-82.839277
Lexington   OR,2.66E7,45.426362,-119.74636
Burlington   ND,2.665E7,48.273534,-101.428205
Christopher   IL,8.537E7,37.984905,-89.057367
Spokane   WA,3.269E7,47.666485,-117.436527
Sawyer   MN,5.974E7,46.711799,-92.609612
Wanakena   NY,1.0868E8,44.2184,-75.090765
Elmo   MO,6.799E7,40.518492,-95.123564
Liberty   KS,4.912E7,37.157629,-95.601698
Dell   AR,3.956E7,35.850118,-90.035449
Toledo   OH,6.854E7,41.650417,-83.597419
New   PA,9.806E7,40.856891,-80.393904
Lexington   KY,5.504E7,38.070211,-84.591046
Ixonia   WI,4.836E7,43.170667,-88.580567
Ben   TX,1.1383E8,33.474146,-95.759107
Saint   SD,2.632E7,44.552225,-103.734426
Fontana   NC,4.835E7,35.428187,-83.817631
Philpot   KY,5.504E7,37.718317,-86.937172
Lake   MN,5.974E7,47.214992,-95.002148
Yonkers   NY,1.0868E8,40.940716,-73.888317
Orchard   MI,5.905E7,42.598109,-83.395536
Cornish   ME,2.69E7,43.779612,-70.778433
Canada   KY,5.504E7,37.637816,-82.35331
Westphalia   MO,6.799E7,38.426968,-92.039221
Bellevue   OH,6.854E7,41.268432,-82.85765
Scandinavia   WI,4.836E7,44.460436,-89.165042
Hume   IL,8.537E7,39.800882,-87.874659
Jefferson   MD,2.948E7,39.365291,-77.544061
Keystone   SD,2.632E7,43.969604,-103.335235
Lenexa   KS,4.912E7,38.959929,-94.713265
Decoy   KY,5.504E7,37.49046,-83.028956
Seal   CA,1.0137E8,33.760971,-118.08428
Fresh   NY,1.0868E8,40.727231,-73.794922
Victoria   VA,5.66E7,36.983543,-78.237243
Poway   CA,1.0137E8,32.975619,-117.040223
Narka   KS,4.912E7,39.958162,-97.424332
Pembroke   MA,3.219E7,42.062072,-70.804404
Sanbornville   NH,1.457E7,43.551278,-71.020005
Laceys   AL,3.798E7,34.499647,-86.612869
Cotati   CA,1.0137E8,38.325918,-122.704831
Raymond   IA,6.272E7,42.467169,-92.216247
West   NY,1.0868E8,41.955478,-74.285117
Carrizozo   NM,1.856E7,33.64962,-105.869617
Warren   MI,5.905E7,42.514943,-82.996764
Van   WI,4.836E7,43.873399,-88.510008
Cobhill   KY,5.504E7,37.743428,-83.840053
Spring   PA,9.806E7,40.615329,-79.454487
Buckner   KY,5.504E7,38.363008,-85.47406
Truro   MA,3.219E7,41.998792,-70.056362
Hollywood   FL,5.589E7,26.022927,-80.297441
Brush   TN,3.994E7,36.110673,-86.020344
Central   NM,1.856E7,32.779767,-108.162698
Jefferson   MO,6.799E7,38.546212,-92.152462
Roe   AR,3.956E7,34.628592,-91.377058
Brownsville   OR,2.66E7,44.376974,-122.948491
Caney   KY,5.504E7,37.809847,-83.291662
East   OH,6.854E7,40.840554,-80.546513
Brinkley   KY,5.504E7,37.262613,-82.913976
Paulding   OH,6.854E7,41.141016,-84.572227
Anthony   FL,5.589E7,29.304785,-82.126157
Prescott   MI,5.905E7,44.20999,-84.021197
Calliham   TX,1.1383E8,28.417682,-98.407873
Scranton   PA,9.806E7,41.412777,-75.686081
Charleston   AR,3.956E7,35.311502,-94.03368
Hampshire   IL,8.537E7,42.080748,-88.517033
Lebanon   VA,5.66E7,36.880895,-82.09563
Iron   MI,5.905E7,45.821894,-88.068257
Utica   MS,2.49E7,32.122897,-90.604724
Roanoke   IN,4.646E7,40.960003,-85.35263
Cincinnati   OH,6.854E7,39.127027,-84.513127
Jericho   VT,1.602E7,44.484318,-72.979398
West   IL,8.537E7,40.245184,-91.249568
Decatur   GA,4.41E7,33.740825,-84.263165
Karval   CO,2.908E7,38.71194,-103.500613
Bloomfield   MT,2.126E7,47.340813,-104.878235
Houma   LA,3.207E7,29.560137,-90.691668
Fort   TX,1.1383E8,31.794873,-106.159157
Monroe   MA,3.219E7,42.723885,-72.960156
Tenino   WA,3.269E7,46.864119,-122.849269
Estacada   OR,2.66E7,45.287177,-122.325858
Manila   KY,5.504E7,37.826409,-82.928079
Wauwatosa   WI,4.836E7,43.050006,-88.041386
Franklin   WI,4.836E7,42.901728,-88.008582
Lake   MN,5.974E7,44.430493,-92.283778
Madisonville   LA,3.207E7,30.428743,-90.177282
Ramsey   MN,5.974E7,45.238537,-93.407822
Hampton   VA,5.66E7,37.03181,-76.319875
Crofton   MD,2.948E7,39.011163,-76.680166
New   NY,1.0868E8,40.768476,-73.958805
Sarasota   FL,5.589E7,27.331588,-82.548624
Eureka   KS,4.912E7,37.826471,-96.295877
Irondale   AL,3.798E7,33.532797,-86.685697
Anna   IL,8.537E7,37.466777,-89.220684
Willard   NM,1.856E7,34.57543,-106.030706
Uncasville   CT,1.814E7,41.462168,-72.112556
West   VT,1.602E7,43.716068,-72.444618
Haworth   NJ,3.691E7,40.960808,-73.987376
Moffett   CA,1.0137E8,37.41001,-122.051944
The   GA,4.41E7,32.971734,-84.242359
Hartford   KY,5.504E7,37.478533,-86.917982
Princeton   TX,1.1383E8,33.155542,-96.498073
Keytesville   MO,6.799E7,39.479388,-92.930187
Atlanta   GA,4.41E7,33.831963,-84.385145
Hagerstown   IN,4.646E7,39.92277,-85.160091
Simsbury   CT,1.814E7,41.873712,-72.821267
Royal   MI,5.905E7,42.490579,-83.136584
Hindman   KY,5.504E7,37.327607,-82.952653
Rowley   IA,6.272E7,42.343449,-91.787543
Thornton   WA,3.269E7,47.12525,-117.386416
Milford   CT,1.814E7,41.217466,-73.054948
Ridgefield   NJ,3.691E7,40.832568,-74.001531
Middlefield   OH,6.854E7,41.445547,-81.037338
Madison   MS,2.49E7,32.467065,-90.108744
Marshall   TX,1.1383E8,32.53378,-94.36191
Maumee   OH,6.854E7,41.581682,-83.66283
Wappapello   MO,6.799E7,36.976566,-90.284805
Montgomery   WV,4.44E7,38.141232,-81.281354
Ringgold   GA,4.41E7,34.92052,-85.154908
Tyaskin   MD,2.948E7,38.30706,-75.869032
Arena   WI,4.836E7,43.152111,-89.938614
Palo   CA,1.0137E8,37.418009,-122.127375
Brooklyn   NY,1.0868E8,40.692433,-73.96662
Lake   TN,3.994E7,36.203223,-84.138567
Warminster   PA,9.806E7,40.206676,-75.090513
Galveston   TX,1.1383E8,29.298272,-94.79297
Keezletown   VA,5.66E7,38.439588,-78.776998
North   ME,2.69E7,44.206511,-70.717393
Crete   IL,8.537E7,41.438952,-87.602738
Conway   NC,4.835E7,36.416382,-77.250243
Mingo   IA,6.272E7,41.789843,-93.288015
32649   FL,5.589E7,29.076034,-82.661343
Panama   FL,5.589E7,30.058252,-85.576225
Woodrum   VA,5.66E7,38.145104,-79.07519
Hermleigh   TX,1.1383E8,32.629441,-100.754714
Las   NV,7190000.0,36.081052,-115.216856
Chicago   IL,8.537E7,41.970325,-87.704157
Nova   OH,6.854E7,41.028215,-82.338439
Denver   CO,2.908E7,39.707437,-104.968587
Pattonsburg   MO,6.799E7,40.042756,-94.134295
Center   AL,3.798E7,33.618045,-86.661051
Hermleigh   TX,1.1383E8,32.629441,-100.754714
Wingdale   NY,1.0868E8,41.653824,-73.555621
Crump   TN,3.994E7,35.221641,-88.335641
Samson   AL,3.798E7,31.104918,-86.067416
South   MN,5.974E7,44.888128,-93.046013
Barrett   MN,5.974E7,45.899555,-95.875391
Glasgow   KY,5.504E7,36.988189,-85.922053
Rudolph   OH,6.854E7,41.296734,-83.683212
Splendora   TX,1.1383E8,30.232609,-95.199308
Lone   TX,1.1383E8,32.946982,-94.718303
Saginaw   MI,5.905E7,43.424838,-83.974455
Cumby   TX,1.1383E8,33.111761,-95.794536
Nicktown   PA,9.806E7,40.601623,-78.811394
West   MN,5.974E7,45.798451,-95.08328
Radisson   WI,4.836E7,45.773359,-91.22615
Towaoc   CO,2.908E7,37.208408,-108.719993
Belews   NC,4.835E7,36.226874,-80.092988
Hammond   MN,5.974E7,44.248812,-92.403967
Dayton   OH,6.854E7,39.782148,-84.237297
Glen   WI,4.836E7,42.820372,-91.000451
Spencerville   MD,2.948E7,39.121343,-76.959802
Midland   GA,4.41E7,32.561587,-84.855851
Cornish   NH,1.457E7,43.496339,-72.339426
East   PA,9.806E7,40.100781,-76.351169
Hayt   NY,1.0868E8,42.676979,-76.821575
Heman   IL,8.537E7,39.939737,-89.068316
Ovid   MI,5.905E7,42.996927,-84.364939
Ulm   AR,3.956E7,34.579938,-91.51343
Zell   SD,2.632E7,44.854624,-98.831746
Irvine   CA,1.0137E8,33.68764,-117.798928
Manawa   IA,6.272E7,41.252954,-95.880992
Platte   MO,6.799E7,39.360171,-94.788972
Hi   CA,1.0137E8,34.684751,-118.063245
Indian   AL,3.798E7,33.31046,-86.806176
Correctionville   IA,6.272E7,42.474322,-95.780382
Summit   MS,2.49E7,31.29752,-90.465427
Derry   NH,1.457E7,42.887404,-71.301971
Doyline   LA,3.207E7,32.490023,-93.399585
Goodman   MO,6.799E7,36.732335,-94.39855
32691   FL,5.589E7,28.999563,-82.046434
Wisconsin   WI,4.836E7,43.650789,-89.76652
Lebanon   NH,1.457E7,43.644688,-72.242818
Ardmore   TN,3.994E7,35.057445,-86.879555
Windsor   VA,5.66E7,36.836881,-76.732372
Lajoya   NM,1.856E7,34.343444,-106.84279
Whitman   MA,3.219E7,42.081603,-70.938127
Richmondville   NY,1.0868E8,42.642445,-74.571001
Kansas   MO,6.799E7,39.102459,-94.590092
Casselton   ND,2.665E7,46.899195,-97.213821
Circleville   KS,4.912E7,39.515472,-95.851708
Morristown   MN,5.974E7,44.234183,-93.452512
Scottsville   NY,1.0868E8,43.02462,-77.774256
Green   WV,4.44E7,39.502931,-78.627191
Norman   OK,3.887E7,35.210733,-97.472984
Hamilton   NC,4.835E7,35.944119,-77.21762
Arrowsmith   IL,8.537E7,40.411966,-88.629648
Chevy   MD,2.948E7,38.977955,-77.081984
Elizabethtown   IL,8.537E7,37.466492,-88.286735
Strawberry   IA,6.272E7,42.683225,-91.540926
Fritch   TX,1.1383E8,35.644121,-101.584482
Tornado   WV,4.44E7,38.335697,-81.847555
Leola   SD,2.632E7,45.732265,-98.901544
Paris   TN,3.994E7,36.300519,-88.309328
Bakersfield   VT,1.602E7,44.790518,-72.796834
Royal   IL,8.537E7,39.124165,-90.048737
Media   IL,8.537E7,40.761775,-90.85696
Walters   VA,5.66E7,36.708974,-76.870156
Sumner   IL,8.537E7,38.734077,-87.780728
Oklahoma   OK,3.887E7,35.568508,-97.39057
Cove   WV,4.44E7,38.077744,-82.256206
Columbus   MT,2.126E7,45.626171,-109.257126
Arizona   AZ,1.899E7,33.238577,-111.643596
Tampa   FL,5.589E7,27.967078,-82.433368
Barnesville   PA,9.806E7,40.813811,-76.06109
New   CT,1.814E7,41.846797,-73.010369
Country   IL,8.537E7,41.559773,-87.718452
Queen   MD,2.948E7,38.945583,-75.977655
New   ME,2.69E7,43.960835,-70.297381
Coal   IN,4.646E7,39.257304,-86.988297
Springfield   SD,2.632E7,42.868694,-97.928825
New   CT,1.814E7,41.846797,-73.010369
Alvord   TX,1.1383E8,33.36982,-97.688488
Honolulu   HI,5410000.0,21.288677,-157.800626
Scottsdale   AZ,1.899E7,33.521767,-111.904926
Girdler   KY,5.504E7,36.969096,-83.85388
Phenix   AL,3.798E7,32.470647,-85.018118
Hull   TX,1.1383E8,30.13337,-94.660382
Hampton   NJ,3.691E7,40.677351,-74.962221
Carrizo   TX,1.1383E8,28.52779,-99.863513
Maple   MI,5.905E7,44.859035,-85.881392
Newport   TN,3.994E7,35.954431,-83.202749
Richmond   MN,5.974E7,45.423817,-94.546072
Tucson   AZ,1.899E7,32.213813,-110.824046
South   NC,4.835E7,36.453576,-76.303284
Metamora   MI,5.905E7,42.942365,-83.318371
Big   WV,4.44E7,38.004555,-82.016056
Grasston   MN,5.974E7,45.772926,-93.196226
Highland   KS,4.912E7,39.860752,-95.258335
Los   CA,1.0137E8,33.956896,-118.307304
De   MO,6.799E7,38.120421,-90.554621
Roland   OK,3.887E7,35.453811,-94.529085
Glendale   AZ,1.899E7,33.531122,-112.176703
Robertsville   MO,6.799E7,38.381602,-90.801619
Blackwater   VA,5.66E7,36.639011,-82.98658
Potts   MS,2.49E7,34.604742,-89.315073
Tellico   TN,3.994E7,35.356237,-84.306785
Luzerne   MI,5.905E7,44.629594,-84.246742
Hazleton   IA,6.272E7,42.607561,-91.910462
Gaylesville   AL,3.798E7,34.357324,-85.558893
Hillsboro   IA,6.272E7,40.837211,-91.711938
Cavour   SD,2.632E7,44.364951,-98.020797
West   NY,1.0868E8,40.692915,-73.653859
Las   NV,7190000.0,36.085366,-115.256614
Chesterfield   IN,4.646E7,40.096431,-85.601493
Spanish   CA,1.0137E8,38.328137,-122.305518
Cammal   PA,9.806E7,41.380901,-77.462021
Scotland   AR,3.956E7,35.507956,-92.586652
Hyde   NY,1.0868E8,41.788724,-73.906347
Huntington   MI,5.905E7,42.482538,-83.174906
Hale   TX,1.1383E8,34.066943,-101.873623
Amherst   VA,5.66E7,37.602677,-79.050572
Eckerman   MI,5.905E7,46.346638,-85.162606
New   SD,2.632E7,43.431042,-98.628697
Birdsboro   PA,9.806E7,40.256304,-75.834373
Frederick   OK,3.887E7,34.401199,-99.011877
Duryea   PA,9.806E7,41.348557,-75.761104
Holly   MS,2.49E7,34.747061,-89.489714
West   NH,1.457E7,43.64401,-72.300735
Ritzville   WA,3.269E7,47.131528,-118.395812
Greenville   NY,1.0868E8,42.411342,-74.022222
Catasauqua   PA,9.806E7,40.655696,-75.46927
Sterling   CO,2.908E7,40.63062,-103.221183
Algood   TN,3.994E7,36.174261,-85.49531
Raceland   KY,5.504E7,38.522575,-82.715632
Hartford   CT,1.814E7,41.78596,-72.675807
High   KY,5.504E7,37.862141,-84.662079
Millwood   GA,4.41E7,31.250566,-82.644148
Horse   NC,4.835E7,35.370267,-82.598128
Niota   IL,8.537E7,40.597753,-91.299136
South   NY,1.0868E8,42.376994,-74.725901
Pacific   WA,3.269E7,47.198144,-124.158833
Middle   NY,1.0868E8,40.878212,-72.952539
Van   CA,1.0137E8,34.200568,-118.486821
Hoyt   CO,2.908E7,40.205651,-104.052814
Timken   KS,4.912E7,38.445489,-99.190154
Tampa   FL,5.589E7,27.865916,-82.507097
Ossipee   NH,1.457E7,43.694506,-71.112873
Genoa   NE,3.828E7,41.446776,-97.764011
Bearsdale   IL,8.537E7,39.877413,-88.953515
Grenola   KS,4.912E7,37.366824,-96.439564
Moberly   MO,6.799E7,39.420239,-92.435793
Lame   MT,2.126E7,45.603167,-106.565424
Keswick   IA,6.272E7,41.461251,-92.239547
Stover   MO,6.799E7,38.441352,-92.994667
Danbury   NE,3.828E7,40.037689,-100.424228
Concord   VA,5.66E7,37.336953,-78.980353
Higginsville   MO,6.799E7,39.070504,-93.713265
Winfield   MO,6.799E7,38.989727,-90.821319
Norwood   MN,5.974E7,44.766786,-93.930067
Hutsonville   IL,8.537E7,39.106357,-87.669455
Reno   NV,7190000.0,39.497239,-119.776395
Jackson   SC,2.41E7,33.338886,-81.797628
Virginia   NV,7190000.0,39.387282,-119.596063
San   CA,1.0137E8,37.785607,-122.435835
Jackpot   NV,7190000.0,41.839591,-115.112886
Pengilly   MN,5.974E7,47.315089,-93.193667
Flower   WV,4.44E7,38.839711,-80.840342
Kansas   MO,6.799E7,39.088303,-94.536636
Capitola   CA,1.0137E8,36.977359,-121.952145
Nauvoo   AL,3.798E7,33.929859,-87.432449
Bowling   KY,5.504E7,36.96629,-86.393321
Sheridan   AR,3.956E7,34.316527,-92.365713
Welda   KS,4.912E7,38.168615,-95.309606
Franklin   AL,3.798E7,31.723815,-87.441237
Yorba   CA,1.0137E8,33.888361,-117.799619
Great   IL,8.537E7,42.303173,-87.864192
Kensington   CA,1.0137E8,37.890829,-122.25976
Spartansburg   PA,9.806E7,41.793648,-79.684916
Rhinebeck   NY,1.0868E8,41.927206,-73.888754
Bay   WI,4.836E7,42.981405,-87.894598
Las   NV,7190000.0,36.038273,-115.146182
North   MA,3.219E7,41.633789,-70.995769
Jameson   MO,6.799E7,40.004615,-93.959747
Humphrey   NE,3.828E7,41.670184,-97.498649
Eureka   AR,3.956E7,36.417465,-93.737915
Kensington   KS,4.912E7,39.769179,-99.030848
Carbon   IN,4.646E7,39.57463,-87.064455
Baltimore   MD,2.948E7,39.287,-76.647586
Ulysses   PA,9.806E7,41.845903,-77.712557
Loyal   WI,4.836E7,44.727243,-90.492238
Chicago   IL,8.537E7,41.902509,-87.739307
Gilmore   AR,3.956E7,35.386408,-90.264664
Hindsboro   IL,8.537E7,39.701799,-88.148611
Coxsackie   NY,1.0868E8,42.350142,-73.819881
Allenton   WI,4.836E7,43.468065,-88.353901
Shelton   CT,1.814E7,41.304689,-73.129439
Phoenix   AZ,1.899E7,33.493909,-112.16963
Pine   PA,9.806E7,40.567093,-76.326913
Wiconisco   PA,9.806E7,40.567511,-76.709084
Bogalusa   LA,3.207E7,30.773303,-89.865329
Seneca   SD,2.632E7,45.026191,-99.460986
Parkersburg   IA,6.272E7,42.571377,-92.768763
Surry   NH,1.457E7,42.943127,-72.28954
Haines   OR,2.66E7,44.877622,-117.97556
Brooklyn   MN,5.974E7,45.105586,-93.340184
Omaha   KY,5.504E7,37.311528,-82.830417
Canton   GA,4.41E7,34.205874,-84.457756
Powderville   MT,2.126E7,45.739183,-105.276098
Reedsville   WI,4.836E7,44.157566,-87.966028
Concord   MI,5.905E7,42.187501,-84.652928
Stevensville   PA,9.806E7,41.771782,-76.171696
Fort   KS,4.912E7,37.70652,-99.945631
Pebble   CA,1.0137E8,36.590735,-121.942044
Hampton   FL,5.589E7,29.857511,-82.148347
Abraham   WV,4.44E7,37.697802,-81.1023
Pretty   KS,4.912E7,37.77828,-97.988603
Lyndeborough   NH,1.457E7,42.895449,-71.774373
Mineral   MO,6.799E7,37.915555,-90.719324
Thornton   KY,5.504E7,37.129622,-82.7382
Wilmar   AR,3.956E7,33.621296,-91.925697
Pocatello   ID,1.691E7,42.887592,-112.438142
Heidrick   KY,5.504E7,36.892696,-83.866509
Hartford   IA,6.272E7,41.459629,-93.402213
Atlantic   MI,5.905E7,47.093663,-88.661318
Eldridge   AL,3.798E7,33.931546,-87.619397
Kearns   UT,1.373E7,40.652759,-111.98521
Albion   IL,8.537E7,38.374003,-88.063557
Lexington   KY,5.504E7,38.070211,-84.591046
Hialeah   FL,5.589E7,25.938841,-80.316545
Bingham   NE,3.828E7,42.260651,-102.133075
Cascade   IA,6.272E7,42.286959,-91.014395
Ridgely   TN,3.994E7,36.263849,-89.485765
Saint   MN,5.974E7,43.987519,-94.622935
Russellville   IN,4.646E7,39.836598,-86.966975
San   CA,1.0137E8,33.144386,-117.169716
Medical   OR,2.66E7,44.780102,-117.828631
Davidsonville   MD,2.948E7,38.937364,-76.637542
Oark   AR,3.956E7,35.709454,-93.558531
Fraziers   WV,4.44E7,38.551678,-82.011068
Lyons   IN,4.646E7,38.971731,-87.101595
Borrego   CA,1.0137E8,33.238649,-116.351394
Rupert   GA,4.41E7,32.432524,-84.273753
San   CA,1.0137E8,37.778616,-122.489178
West   ME,2.69E7,44.372804,-70.432314
Clinton   MT,2.126E7,46.767281,-113.703764
Kyburz   CA,1.0137E8,38.780036,-120.25529
Crow   MT,2.126E7,45.629594,-107.497251
Shrewsbury   NJ,3.691E7,40.328198,-74.058892
Pleasant   PA,9.806E7,41.732204,-75.398944
Newport   AR,3.956E7,35.598823,-91.257064
Weston   MO,6.799E7,39.445294,-94.914453
Ringold   OK,3.887E7,34.179892,-95.070387
Lake   FL,5.589E7,26.610366,-80.168299
Deltona   FL,5.589E7,28.909311,-81.192171
North   ME,2.69E7,45.805639,-67.837741
Hereford   MD,2.948E7,39.576611,-76.592957
Evangeline   LA,3.207E7,30.26829,-92.553244
North   NY,1.0868E8,42.589648,-78.91073
Peru   IN,4.646E7,40.749203,-86.068044
Mahomet   IL,8.537E7,40.196437,-88.39283
Barryville   NY,1.0868E8,41.491162,-74.915234
Benwood   WV,4.44E7,40.013299,-80.71603
Kismet   NY,1.0868E8,40.733744,-73.252708
Spofford   NH,1.457E7,42.911973,-72.410277
Jamestown   KS,4.912E7,39.602144,-97.863082
Taftville   CT,1.814E7,41.565263,-72.052877
Duluth   MN,5.974E7,46.874913,-92.094057
Cudahy   WI,4.836E7,42.948976,-87.861983
Holton   MI,5.905E7,43.441454,-86.150853
Clayton   MI,5.905E7,41.868648,-84.177519
Tidewater   OR,2.66E7,44.405538,-123.914861
Frewsburg   NY,1.0868E8,42.052753,-79.131797
Pleasant   OR,2.66E7,43.945816,-122.928487
Mid   FL,5.589E7,27.103245,-82.415112
Yazoo   MS,2.49E7,32.85937,-90.403145
Old   NY,1.0868E8,40.764991,-73.457481
Ann   MI,5.905E7,42.293,-83.715363
Kingstree   SC,2.41E7,33.687841,-79.783221
Bronx   NY,1.0868E8,40.866231,-73.900259
Clarksburg   MO,6.799E7,38.643156,-92.672925
Oskaloosa   IA,6.272E7,41.294205,-92.64393
Horse   NC,4.835E7,35.370267,-82.598128
Mc   CO,2.908E7,39.913377,-106.730906
Cedar   MN,5.974E7,45.336494,-93.265834
Lindseyville   KY,5.504E7,37.22813,-86.296384
Oriska   ND,2.665E7,46.943251,-97.785331
Van   TX,1.1383E8,32.528265,-95.654538
Winifred   KS,4.912E7,39.718996,-96.428323
North   NY,1.0868E8,40.685738,-73.469727
Kilmarnock   VA,5.66E7,37.716222,-76.381986
Imperial   PA,9.806E7,40.458384,-80.264861
Des   ND,2.665E7,48.25569,-101.567167
Medina   NY,1.0868E8,43.218428,-78.387422
Nazareth   TX,1.1383E8,34.544356,-102.106914
Mandan   ND,2.665E7,46.830649,-100.909175
Philadelphia   PA,9.806E7,39.922332,-75.233796
Newport   CA,1.0137E8,33.623084,-117.92788
Ora   SC,2.41E7,34.500714,-82.026774
Denmark   ME,2.69E7,43.975499,-70.792409
Sparland   IL,8.537E7,41.013366,-89.45711
Jasper   FL,5.589E7,30.502914,-82.932186
Scranton   PA,9.806E7,41.39145,-75.665738
Garrison   MO,6.799E7,36.860997,-92.9985
Suffolk   VA,5.66E7,36.866823,-76.559811
Fort   LA,3.207E7,31.032068,-93.22213
Burlington   CT,1.814E7,41.757296,-72.944386
Casas   AZ,1.899E7,32.329175,-110.984593
Seattle   WA,3.269E7,47.541234,-122.275021
Covina   CA,1.0137E8,34.093752,-117.855982
El   MO,6.799E7,37.858517,-94.030091
Cold   CA,1.0137E8,38.20336,-120.001159
Mantador   ND,2.665E7,46.159935,-96.957004
Hartford   KS,4.912E7,38.28326,-95.999718
Poulsbo   WA,3.269E7,47.742278,-122.627721
Galveston   KY,5.504E7,37.478249,-82.661868
Richardton   ND,2.665E7,46.842614,-102.292004
Clarksville   TN,3.994E7,36.522014,-87.348997
Millard   NE,3.828E7,41.201067,-96.124462
West   LA,3.207E7,32.456599,-92.185445
Cherokee   TX,1.1383E8,30.980598,-98.66332
Hawarden   IA,6.272E7,43.001333,-96.472992
Albuquerque   NM,1.856E7,35.134724,-106.522164
Ballinger   TX,1.1383E8,31.746836,-99.958927
Voorhees   NJ,3.691E7,39.850422,-74.964614
North   IN,4.646E7,39.535981,-87.341109
Big   TN,3.994E7,36.571606,-87.737838
Valley   SD,2.632E7,43.577306,-96.495637
Topeka   IN,4.646E7,41.563441,-85.531668
Everett   WA,3.269E7,47.941937,-122.221846
Jacksonville   AL,3.798E7,33.830966,-85.77518
Gassaway   TN,3.994E7,35.974593,-85.985448
Rockland   ME,2.69E7,44.112326,-69.113938
Gully   MN,5.974E7,47.769745,-95.641034
Oakland   OR,2.66E7,43.452968,-123.355774
Lakeview   AR,3.956E7,36.397308,-92.504416
Rainier   OR,2.66E7,46.064552,-122.967067
Cedar   NC,4.835E7,35.074881,-76.08049
Mount   KS,4.912E7,37.868412,-97.659092
Berry   IL,8.537E7,39.759047,-89.547208
Millinocket   ME,2.69E7,45.659563,-68.710117
Sprott   AL,3.798E7,32.654376,-87.141599
Verner   WV,4.44E7,37.64554,-81.864801
Powhattan   KS,4.912E7,39.71769,-95.675111
Ludlow   SD,2.632E7,45.874655,-103.31115
Fallston   MD,2.948E7,39.527048,-76.43277
Austin   TX,1.1383E8,30.333708,-97.982367
Aspen   CO,2.908E7,39.195139,-106.823593
Wetmore   KS,4.912E7,39.642761,-95.823118
Pahala   HI,5410000.0,19.207898,-155.481506
Beldenville   WI,4.836E7,44.7721,-92.437202
Spragueville   IA,6.272E7,42.072742,-90.473044
Fremont   CA,1.0137E8,37.530815,-121.971215
Laredo   MO,6.799E7,40.014397,-93.440676
Syracuse   NY,1.0868E8,43.042134,-76.104609
Mentor   MN,5.974E7,47.657597,-96.177823
Las   NV,7190000.0,36.038273,-115.146182
Huggins   MO,6.799E7,37.266224,-92.148605
Port   PA,9.806E7,40.697731,-76.166046
Brentwood   MD,2.948E7,38.940701,-76.953062
Baltimore   MD,2.948E7,39.362571,-76.609989
Riverdale   GA,4.41E7,33.566716,-84.43645
Averill   NY,1.0868E8,42.636511,-73.550437
Allison   PA,9.806E7,39.982566,-79.875675
Cedarhurst   PA,9.806E7,40.373797,-80.072425
Dizney   KY,5.504E7,36.817697,-83.117659
Brockway   MI,5.905E7,43.122429,-82.797899
Ahsahka   ID,1.691E7,46.510318,-116.371537
Alamo   GA,4.41E7,32.13298,-82.794445
Round   TX,1.1383E8,30.041131,-96.734058
Okauchee   WI,4.836E7,43.113011,-88.432287
East   NY,1.0868E8,40.761111,-73.891586
Wichita   TX,1.1383E8,33.937345,-98.540679
Edinburg   MS,2.49E7,32.788635,-89.535274
Roaring   TX,1.1383E8,33.897669,-100.852818
Laughlintown   PA,9.806E7,40.208025,-79.18058
Glendale   AZ,1.899E7,33.594289,-112.174575
Nason   IL,8.537E7,38.173872,-88.968839
Stockton   NY,1.0868E8,42.318195,-79.375792
Chestertown   MD,2.948E7,39.212517,-76.080214
Big   WV,4.44E7,38.383178,-81.623876
Cedar   OR,2.66E7,45.500449,-122.768344
Wilmington   DE,3480000.0,39.757076,-75.563503
Turner   OR,2.66E7,44.847607,-122.950117
Kulm   ND,2.665E7,46.307274,-98.942724
Mc   PA,9.806E7,40.699084,-77.375791
Sag   NY,1.0868E8,40.981996,-72.30674
Erie   PA,9.806E7,42.073801,-80.14844
Crystal   MS,2.49E7,31.993329,-90.374439
Ben   TX,1.1383E8,32.412588,-95.637085
Kellnersville   WI,4.836E7,44.22493,-87.803596
Pawhuska   OK,3.887E7,36.690424,-96.31209
New   SC,2.41E7,33.795736,-80.014753
Spring   MN,5.974E7,47.588811,-93.838215
Chadron   NE,3.828E7,42.819268,-102.995331
Ebony   VA,5.66E7,36.584993,-77.999431
Boonville   CA,1.0137E8,39.035007,-123.401954
Novato   CA,1.0137E8,38.097258,-122.583691
Norcatur   KS,4.912E7,39.844661,-100.200714
Pembroke   MA,3.219E7,42.062072,-70.804404
Garrison   IA,6.272E7,42.158827,-92.164409
Saint   AK,1.371E7,57.178697,-170.293408
Clarksburg   PA,9.806E7,40.503933,-79.367676
Tuskahoma   OK,3.887E7,34.734778,-95.220798
Waccabuc   NY,1.0868E8,41.303208,-73.603207
Richville   NY,1.0868E8,44.40454,-75.402455
Omaha   GA,4.41E7,32.165234,-84.900792
Elk   KY,5.504E7,37.339287,-85.191764
Montpelier   VA,5.66E7,37.817729,-77.692441
Bayberry   NY,1.0868E8,43.148048,-76.223269
Dexter   MO,6.799E7,36.788458,-89.963933
Salem   FL,5.589E7,29.823815,-83.385828
Charleston   TN,3.994E7,35.255644,-84.766639
Browntown   VA,5.66E7,38.827272,-78.279111
New   WV,4.44E7,39.658798,-80.856541
32676   FL,5.589E7,29.078026,-82.18804
Detroit   MI,5.905E7,42.39816,-82.99253
Cushing   WI,4.836E7,45.560359,-92.624136
Monroe   VA,5.66E7,37.541366,-79.17034
Spencer   NC,4.835E7,35.695312,-80.431049
Cosmopolis   WA,3.269E7,46.953789,-123.77394
Truro   IA,6.272E7,41.207622,-93.840978
Wade   NC,4.835E7,35.160559,-78.724929
Kingsbury   TX,1.1383E8,29.672566,-97.830634
Montpelier   IN,4.646E7,40.557656,-85.251339
Shawnee   KS,4.912E7,38.997764,-94.873017
Wingate   MD,2.948E7,38.289898,-76.086303
Radium   MN,5.974E7,48.20784,-96.759702
Livermore   CA,1.0137E8,37.68299,-121.762983
Piedmont   SD,2.632E7,44.228744,-103.368818
Chicago   IL,8.537E7,41.971928,-87.662405
Hardshell   KY,5.504E7,37.484106,-83.328889
Ulvah   KY,5.504E7,37.120385,-83.035127
North   NY,1.0868E8,43.986872,-73.712065
Littleton   WV,4.44E7,39.659205,-80.569478
Saint   LA,3.207E7,30.208282,-91.825961
Bailey   KY,5.504E7,36.864807,-83.899316
Fremont   WI,4.836E7,44.237884,-88.844852
Pensacola   FL,5.589E7,30.412912,-87.309185
Independence   CA,1.0137E8,36.839578,-118.204808
Ogden   IL,8.537E7,40.140117,-87.966499
Port   TX,1.1383E8,28.140032,-96.775131
Richland   TX,1.1383E8,31.901785,-96.437262
Center   CO,2.908E7,37.734295,-106.090628
Junction   OR,2.66E7,44.198792,-123.230014
Brandon   FL,5.589E7,27.905649,-82.288116
Lenexa   KS,4.912E7,38.961896,-94.773145
Union   OH,6.854E7,40.201773,-84.783209
Puxico   MO,6.799E7,36.942163,-90.162258
Wapakoneta   OH,6.854E7,40.568978,-84.177378
Carrsville   KY,5.504E7,37.12269,-88.383593
Cave   AR,3.956E7,36.266771,-94.207836
Jensen   UT,1.373E7,40.378715,-109.350982
Sullivan   IL,8.537E7,39.593431,-88.603767
Batavia   OH,6.854E7,39.095661,-84.145125
Waverly   VA,5.66E7,37.025032,-77.105453
Petros   TN,3.994E7,36.055903,-84.439914
Norman   OK,3.887E7,35.224254,-97.379159
Driftwood   PA,9.806E7,41.376396,-78.163194
Philadelphia   PA,9.806E7,40.07262,-75.170621
South   WI,4.836E7,43.610934,-88.509729
Washburn   TN,3.994E7,36.310649,-83.593685
Eagan   MN,5.974E7,44.843039,-93.16753
Bergen   ND,2.665E7,47.951793,-100.803824
Saint   MN,5.974E7,44.711091,-96.042546
Rutland   IL,8.537E7,40.984407,-89.038829
Headland   AL,3.798E7,31.353406,-85.332277
Alexis   NC,4.835E7,35.383613,-81.102204
South   CA,1.0137E8,37.65382,-122.4347
Buffalo   NY,1.0868E8,42.896659,-78.884575
Katonah   NY,1.0868E8,41.270884,-73.684115
Lowden   IA,6.272E7,41.859393,-90.93822
Camargo   OK,3.887E7,36.021235,-99.278101
Pleasant   OH,6.854E7,39.288382,-84.096736
Marcy   NY,1.0868E8,43.163926,-75.278335
Macedonia   OH,6.854E7,41.322236,-81.499578
La   KY,5.504E7,38.402897,-85.392819
Whites   TN,3.994E7,36.274377,-86.82922
Moncure   NC,4.835E7,35.630615,-79.083915
Northumberland   PA,9.806E7,40.904355,-76.790794
Fullerton   ND,2.665E7,46.195138,-98.388219
Dyer   IN,4.646E7,41.491976,-87.510803
Minneapolis   MN,5.974E7,44.902567,-93.288618
Groveland   FL,5.589E7,28.564445,-81.874526
Saint   MN,5.974E7,48.010871,-96.224914
Gates   OR,2.66E7,44.752716,-122.399498
North   VT,1.602E7,43.720401,-72.494287
Morrill   KS,4.912E7,39.935592,-95.712048
Apalachin   NY,1.0868E8,42.055579,-76.15194
Princeton   WI,4.836E7,43.843827,-89.124913
Summit   WI,4.836E7,45.320414,-89.180743
Stephenson   WV,4.44E7,37.579847,-81.333914
Oriental   NC,4.835E7,35.036406,-76.701521
Bern   ID,1.691E7,42.319144,-111.392595
Blakesburg   IA,6.272E7,40.984763,-92.594037
Rye   CO,2.908E7,37.937145,-104.886257
Nowata   OK,3.887E7,36.694565,-95.640421
Layton   IL,8.537E7,40.124189,-90.560883
Viola   IL,8.537E7,41.202422,-90.593583
Voca   TX,1.1383E8,30.995874,-99.168203
Houston   MO,6.799E7,37.321829,-91.952982
Wheat   CO,2.908E7,39.774036,-105.096195
Mc   IL,8.537E7,38.093861,-88.528556
Elburn   IL,8.537E7,41.882405,-88.461106
Howard   KS,4.912E7,37.48089,-96.256298
Aberdeen   SD,2.632E7,45.466109,-98.485642
Irmo   SC,2.41E7,34.110254,-81.196553
Fishing   WY,9830000.0,44.853913,-110.674366
Darden   TN,3.994E7,35.662962,-88.217688
Everett   PA,9.806E7,40.009808,-78.371315
Oneonta   AL,3.798E7,33.925858,-86.474118
Laurel   NE,3.828E7,42.427036,-97.087381
Kobuk   AK,1.371E7,66.912253,-157.066864
Dallas   TX,1.1383E8,32.767226,-96.683586
Minneapolis   MN,5.974E7,44.905371,-93.23606
Cochiti   NM,1.856E7,35.603104,-106.343472
Stallings   NC,4.835E7,35.121879,-80.713568
Paron   AR,3.956E7,34.785289,-92.748176
Halcott   NY,1.0868E8,42.178765,-74.531908
Buffalo   NY,1.0868E8,42.916675,-78.889461
Jay   VT,1.602E7,44.961861,-72.457231
Providence   NC,4.835E7,36.48314,-79.36306
Julesburg   CO,2.908E7,40.97083,-102.257501
Canaseraga   NY,1.0868E8,42.458504,-77.795374
Fritch   TX,1.1383E8,35.644121,-101.584482
Rising   NE,3.828E7,41.208219,-97.303174
Livingston   WI,4.836E7,42.904432,-90.441986
Oneill   NE,3.828E7,42.485733,-98.645565
Augusta   WI,4.836E7,44.694737,-91.123154
Herndon   KY,5.504E7,36.708469,-87.608215
Moneta   VA,5.66E7,37.178383,-79.652111
25242   WV,4.44E7,38.646191,-81.034134
Springwater   NY,1.0868E8,42.677598,-77.577503
Olpe   KS,4.912E7,38.257774,-96.189056
Yellow   CO,2.908E7,37.499526,-108.785167
Belleville   NJ,3.691E7,40.79458,-74.163119
Beech   IN,4.646E7,39.715434,-86.093299
Wallingford   KY,5.504E7,38.337449,-83.562532
Springs   FL,5.589E7,28.703978,-81.422767
Dry   KY,5.504E7,37.346979,-82.781036
Washington   DC,1570000.0,38.951786,-77.020251
Minneapolis   MN,5.974E7,44.997994,-93.255194
Claudville   VA,5.66E7,36.583899,-80.444179
Millstadt   IL,8.537E7,38.444264,-90.088818
Jackson   NY,1.0868E8,40.751329,-73.882975
Summit   WV,4.44E7,39.233753,-77.958552
Winston   MO,6.799E7,39.84995,-94.148747
Agency   SD,2.632E7,45.664413,-97.02322
Derby   VT,1.602E7,44.990183,-72.082367
Newhall   CA,1.0137E8,34.379519,-118.523005
Browns   NC,4.835E7,36.201868,-79.71008
Eden   SD,2.632E7,45.621074,-97.374091
Moro   AR,3.956E7,34.802953,-91.006026
Brule   NE,3.828E7,41.100186,-101.909933
Wendel   CA,1.0137E8,40.346233,-120.352156
Hawaii   HI,5410000.0,19.431103,-155.284015
Champion   MI,5.905E7,46.468497,-87.830587
Avinger   TX,1.1383E8,32.848514,-94.579534
Kivalina   AK,1.371E7,67.665859,-163.733617
Altamont   SD,2.632E7,44.763703,-96.700541
Opal   SD,2.632E7,44.867111,-102.477752
Cedar   UT,1.373E7,40.142516,-111.968985
Orefield   PA,9.806E7,40.624826,-75.597395
Grinnell   KS,4.912E7,39.085107,-100.662052
Brierfield   AL,3.798E7,33.042747,-86.951672
Welch   WV,4.44E7,37.400032,-81.534412
Buffalo   NY,1.0868E8,42.949062,-78.897815
Livermore   IA,6.272E7,42.866601,-94.174716
Keaau   HI,5410000.0,19.589277,-154.992644
Petersburg   NE,3.828E7,41.858954,-98.084791
Jasper   NY,1.0868E8,42.128962,-77.499909
Bloomfield   IA,6.272E7,40.732368,-92.398712
Hilo   HI,5410000.0,19.702522,-155.093921
Hubbardsville   NY,1.0868E8,42.823663,-75.436707
Buncombe   IL,8.537E7,37.463661,-88.980586
Nelson   VA,5.66E7,36.558558,-78.670959
Early   SC,2.41E7,32.628893,-81.030011
Kearney   NE,3.828E7,40.713608,-99.077883
Kingston   NJ,3.691E7,40.380465,-74.616071
Leesburg   NJ,3.691E7,39.238724,-75.001211
Prairie   KS,4.912E7,39.836967,-99.568314
Oxnard   CA,1.0137E8,34.168505,-119.171732
Everson   PA,9.806E7,40.091144,-79.587277
Utica   NY,1.0868E8,43.087112,-75.231463
Powderly   TX,1.1383E8,33.777877,-95.530692
Quincy   IL,8.537E7,39.930701,-91.376284
Montville   OH,6.854E7,41.603446,-81.057036
Lewisville   AR,3.956E7,33.373603,-93.595258
Camden   DE,3480000.0,39.099099,-75.596559
La   NM,1.856E7,36.119383,-106.992335
Melbourne   FL,5.589E7,28.021923,-80.538936
El   TX,1.1383E8,31.853334,-106.438135
Deerfield   FL,5.589E7,26.312365,-80.141242
Eden   NY,1.0868E8,42.650552,-78.878077
Laughlin   NV,7190000.0,35.132138,-114.636769
Tacoma   WA,3.269E7,47.248351,-122.46435
High   MO,6.799E7,38.478237,-92.600514
Bozoo   WV,4.44E7,37.457015,-80.814954
Glen   NY,1.0868E8,40.828098,-73.60763
Bay   OH,6.854E7,41.484137,-81.928868
Alledonia   OH,6.854E7,39.905271,-80.957753
Fremont   MI,5.905E7,43.465196,-85.962554
Gaines   MI,5.905E7,42.881333,-83.885488
Williams   IA,6.272E7,42.461376,-93.56774
Litchfield   AZ,1.899E7,33.494127,-112.380497
Lowell   MA,3.219E7,42.649254,-71.335464
Winchester   MA,3.219E7,42.453028,-71.14407
Hudson   NY,1.0868E8,43.314863,-73.574607
East   NY,1.0868E8,41.984366,-75.125189
Marietta   MN,5.974E7,44.963582,-96.409448
Dubuque   IA,6.272E7,42.464916,-90.682884
Clearwater   FL,5.589E7,27.976503,-82.717248
Amston   CT,1.814E7,41.628969,-72.364601
Scobey   MS,2.49E7,33.92526,-89.891019
Garden   TX,1.1383E8,31.849078,-101.526912
Wannaska   MN,5.974E7,48.64515,-95.7072
Alverton   PA,9.806E7,40.127866,-79.558608
Morris   PA,9.806E7,41.672943,-77.027769
Portland   OR,2.66E7,45.537292,-122.59867
Toadlena   NM,1.856E7,36.073202,-108.750647
Lake   GA,4.41E7,30.690615,-83.175293
Lynn   FL,5.589E7,30.236165,-85.646658
Yutan   NE,3.828E7,41.23403,-96.393247
Valencia   CA,1.0137E8,34.398456,-118.55352
Kirby   WV,4.44E7,39.195588,-78.731468
Gum   VA,5.66E7,37.818374,-77.907049
Clarksville   TX,1.1383E8,32.537232,-94.862115
Alpha   MN,5.974E7,43.594594,-94.905088
Saint   MO,6.799E7,38.610776,-90.292045
Stanton   AL,3.798E7,32.709631,-86.886848
Myers   CA,1.0137E8,40.194758,-123.822713
Mc   IA,6.272E7,42.166475,-93.397757
Grand   LA,3.207E7,29.787535,-92.897997
Holland   PA,9.806E7,40.190212,-75.005994
Delaware   AR,3.956E7,35.278005,-93.346152
Schulenburg   TX,1.1383E8,29.688247,-96.910564
Winston   MO,6.799E7,39.84995,-94.148747
Utica   KS,4.912E7,38.641057,-100.137976
Mount   WV,4.44E7,39.210708,-80.289948
Fort   WV,4.44E7,38.133496,-82.554124
Haddix   KY,5.504E7,37.492249,-83.376176
Hamburg   AR,3.956E7,33.2058,-91.802265
Sudbury   MA,3.219E7,42.383655,-71.428159
Sandy   NY,1.0868E8,43.651681,-76.126439
Sycamore   MO,6.799E7,36.67179,-92.354355
Fowlerville   MI,5.905E7,42.661438,-84.072085
Dorset   OH,6.854E7,41.658972,-80.668334
South   ME,2.69E7,43.229201,-70.785949
Plano   TX,1.1383E8,33.024985,-96.739743
Hartford   IA,6.272E7,41.459629,-93.402213
La   NM,1.856E7,36.957632,-108.179243
Bridgewater   MA,3.219E7,41.977341,-70.97234
North   IN,4.646E7,40.998603,-85.784184
Burnside   IA,6.272E7,42.341318,-94.114253
Salem   NH,1.457E7,42.78465,-71.21761
Rutledge   TN,3.994E7,36.250078,-83.512468
Gateway   CO,2.908E7,38.915136,-108.791344
Dearborn   MI,5.905E7,42.319981,-83.270131
New   LA,3.207E7,30.701356,-91.442124
Thor   IA,6.272E7,42.688923,-94.038958
Bridgewater   CT,1.814E7,41.528684,-73.360936
Coffey   MO,6.799E7,40.099928,-94.025151
Mount   KY,5.504E7,38.035238,-85.164114
Peetz   CO,2.908E7,40.95195,-103.116606
Carl   MO,6.799E7,37.179479,-94.55502
Andalusia   AL,3.798E7,31.297142,-86.490468
Paulding   OH,6.854E7,41.141016,-84.572227
Corning   NY,1.0868E8,42.138331,-77.047546
Rushville   NY,1.0868E8,42.75973,-77.239538
Butte   OR,2.66E7,42.549243,-122.563801
East   IL,8.537E7,38.88031,-90.083045
Princeton   NJ,3.691E7,40.366633,-74.640832
New   VA,5.66E7,37.349291,-76.283465
Riley   KS,4.912E7,39.122421,-96.811824
Manhattan   IL,8.537E7,41.428883,-87.977133
Grove   OK,3.887E7,36.592869,-94.756536
Woolwine   VA,5.66E7,36.792076,-80.277426
New   NY,1.0868E8,40.759729,-73.982347
Seitz   KY,5.504E7,37.668402,-83.174941
Okmulgee   OK,3.887E7,35.628805,-95.96967
Woodside   NY,1.0868E8,40.744972,-73.906911
Hubbardton   VT,1.602E7,43.622413,-73.206424
Butler   OK,3.887E7,35.633638,-99.242749
Manville   RI,4440000.0,41.96888,-71.474113
John   OR,2.66E7,44.409977,-119.105157
Lake   PA,9.806E7,41.866553,-75.32308
Koloa   HI,5410000.0,21.908293,-159.474927
Oldtown   KY,5.504E7,38.441153,-82.95695
Poolville   TX,1.1383E8,32.968023,-97.847229
Honaker   KY,5.504E7,37.514977,-82.667534
Pearl   MI,5.905E7,42.630704,-82.560159
Aylett   VA,5.66E7,37.822113,-77.188473
Davenport   VA,5.66E7,37.068044,-82.122946
Vail   AZ,1.899E7,32.035926,-110.88375
Nimitz   WV,4.44E7,37.628584,-80.94462
South   MA,3.219E7,42.101153,-73.456575
East   ME,2.69E7,44.820642,-68.61883
Cullen   VA,5.66E7,37.155211,-78.645912
Wytopitlock   ME,2.69E7,45.664476,-68.105541
Fountainville   PA,9.806E7,40.336815,-75.153627
Boynton   FL,5.589E7,26.51747,-80.083427
Dakota   MN,5.974E7,43.914806,-91.39404
Richards   MO,6.799E7,37.906111,-94.559227
Hinckley   IL,8.537E7,41.769108,-88.644831
Sidney   NY,1.0868E8,42.307368,-75.3908
Williams   IN,4.646E7,38.773478,-86.628488
Danville   PA,9.806E7,40.979895,-76.622897
Tamassee   SC,2.41E7,34.898229,-82.986138
La   CO,2.908E7,40.321138,-104.726784
Plymouth   OH,6.854E7,41.00031,-82.663492
Hancock   MN,5.974E7,45.498464,-95.800775
Dighton   MA,3.219E7,41.812505,-71.142723
Ballengee   WV,4.44E7,37.616931,-80.740339
Hampton   NJ,3.691E7,40.677351,-74.962221
Diamond   MO,6.799E7,37.005993,-94.32041
Georgetown   DE,3480000.0,38.679006,-75.393198
Knoxville   TN,3.994E7,35.933127,-84.076116
San   CA,1.0137E8,37.786427,-122.389229
Shiloh   IL,8.537E7,38.59052,-89.9093
Capron   IL,8.537E7,42.408659,-88.746518
Farmington   AR,3.956E7,36.043635,-94.253871
Ann   MI,5.905E7,42.279379,-83.783998
Warfield   VA,5.66E7,36.901122,-77.767317
Upland   IN,4.646E7,40.454841,-85.499049
Munger   MI,5.905E7,43.528585,-83.767221
Malden   MA,3.219E7,42.42911,-71.060507
Hermosa   CA,1.0137E8,33.864309,-118.395511
Latonia   KY,5.504E7,39.021686,-84.498858
Hiawassee   GA,4.41E7,34.937667,-83.7478
Soap   WA,3.269E7,47.383034,-119.485962
Killeen   TX,1.1383E8,31.116426,-97.727808
Lynn   AR,3.956E7,36.016639,-91.254588
Chesterfield   MI,5.905E7,42.675344,-82.780102
Memphis   MO,6.799E7,40.46191,-92.185083
Ordway   CO,2.908E7,38.209546,-103.800277
Orr   ND,2.665E7,48.118654,-97.681302
Cromwell   CT,1.814E7,41.61049,-72.666317
Aline   OK,3.887E7,36.505621,-98.457387
Iola   WI,4.836E7,44.532183,-89.137311
Blue   KY,5.504E7,37.310812,-83.228579
Wellsville   NY,1.0868E8,42.110757,-77.94191
Garnerville   NY,1.0868E8,41.202057,-74.000501
Mahanoy   PA,9.806E7,40.812302,-76.139601
East   CT,1.814E7,41.469575,-72.405876
Grants   NM,1.856E7,35.359802,-107.935662
Bamberg   SC,2.41E7,33.277915,-81.017744
Cobden   IL,8.537E7,37.542358,-89.245741
Wayland   MO,6.799E7,40.442574,-91.607864
Auburn   NH,1.457E7,42.992529,-71.344892
Winfield   IL,8.537E7,41.874358,-88.151621
Warrenville   SC,2.41E7,33.519917,-81.829397
Brackenridge   PA,9.806E7,40.608223,-79.741375
Wilsie   WV,4.44E7,38.672723,-80.868051
Campbellton   TX,1.1383E8,28.76699,-98.256573
Hoboken   GA,4.41E7,31.183777,-82.183847
Brightwood   OR,2.66E7,45.365218,-122.003621
Pinnacle   NC,4.835E7,36.333905,-80.439111
Princess   MD,2.948E7,38.191929,-75.707237
Wayland   MI,5.905E7,42.664268,-85.619112
Wakita   OK,3.887E7,36.875333,-97.942687
Holualoa   HI,5410000.0,19.610316,-155.917639
North   ME,2.69E7,43.325401,-70.721173
Lynn   MA,3.219E7,42.469814,-70.941989
Richboro   PA,9.806E7,40.216672,-75.002936
Milwaukee   WI,4.836E7,43.162374,-87.989818
Canisteo   NY,1.0868E8,42.263503,-77.589706
Bakerton   KY,5.504E7,36.871151,-85.331723
Griffithsville   WV,4.44E7,38.246985,-81.982028
Estill   SC,2.41E7,32.737514,-81.217768
Prospect   OR,2.66E7,42.754394,-122.50898
Panama   FL,5.589E7,30.160624,-85.649403
Cherryvale   KS,4.912E7,37.266828,-95.559019
Vandalia   MO,6.799E7,39.294937,-91.488299
Flora   IN,4.646E7,40.544467,-86.501572
Loudonville   OH,6.854E7,40.636059,-82.23559
Miami   FL,5.589E7,25.957095,-80.181382
Cuyama   CA,1.0137E8,34.933694,-119.661339
Cowiche   WA,3.269E7,46.66611,-120.714893
Marietta   OK,3.887E7,33.943099,-97.114801
Barton   NY,1.0868E8,42.069534,-76.398349
Keithsburg   IL,8.537E7,41.104333,-90.926337
Birmingham   AL,3.798E7,33.481565,-86.85904
Portola   CA,1.0137E8,39.810883,-120.466858
Askov   MN,5.974E7,46.196408,-92.752812
Irvona   PA,9.806E7,40.801744,-78.560243
Rainier   WA,3.269E7,46.882942,-122.679468
Lakeway   TX,1.1383E8,30.377404,-97.957558
Pisek   ND,2.665E7,48.297096,-97.702894
Hemingway   SC,2.41E7,33.741887,-79.448895
Beaman   IA,6.272E7,42.236707,-92.816215
New   NY,1.0868E8,41.362714,-74.443483
Caryville   TN,3.994E7,36.285422,-84.189794
Lakefield   MN,5.974E7,43.654456,-95.184834
Magnetic   OH,6.854E7,40.358023,-83.267142
Gilman   MO,6.799E7,40.145005,-93.831979
San   TX,1.1383E8,29.505394,-98.668765
Byron   IL,8.537E7,42.129236,-89.265887
Alexandria   VA,5.66E7,38.806018,-77.052867
Medford   WI,4.836E7,45.151185,-90.350306
Chester   NH,1.457E7,42.967756,-71.244962
Mulkeytown   IL,8.537E7,37.968712,-89.1159
Dover   TN,3.994E7,36.507521,-87.838333
Smithmill   PA,9.806E7,40.767808,-78.399442
Merlin   OR,2.66E7,42.529654,-123.439256
Rumely   MI,5.905E7,46.341867,-86.935068
Filley   NE,3.828E7,40.294606,-96.530132
Riley   OR,2.66E7,44.930529,-116.900621
Marshallton   DE,3480000.0,39.734737,-75.663891
Tiskilwa   IL,8.537E7,41.289055,-89.507968
Stout   OH,6.854E7,38.654588,-83.208984
Mesita   CO,2.908E7,37.05057,-105.575625
New   NY,1.0868E8,40.84955,-73.935649
Tonopah   NV,7190000.0,38.204273,-117.089886
Garfield   MN,5.974E7,45.995309,-95.450044
Oakland   NE,3.828E7,41.838426,-96.467064
Richmond   IN,4.646E7,39.83244,-84.893606
South   WA,3.269E7,46.6544,-123.820315
Waitsfield   VT,1.602E7,44.188917,-72.828321
Comanche   TX,1.1383E8,31.911637,-98.608227
West   MN,5.974E7,45.798451,-95.08328
Carthage   TX,1.1383E8,32.154379,-94.352721
Emden   MO,6.799E7,39.85013,-91.880926
Temvik   ND,2.665E7,46.286924,-100.215832
Fayetteville   PA,9.806E7,39.906543,-77.53096
Westbrook   CT,1.814E7,41.292662,-72.456313
Bayard   NE,3.828E7,41.757923,-103.301887
Kingston   PA,9.806E7,41.274223,-75.890338
Hull   IL,8.537E7,39.718562,-91.233844
Empire   NV,7190000.0,40.357703,-119.655265
Thurmond   NC,4.835E7,36.356188,-80.931674
Ruth   MS,2.49E7,31.379495,-90.286673
College   OH,6.854E7,39.575453,-84.804951
Enterprise   OR,2.66E7,45.437037,-117.288808
Anton   NM,1.856E7,35.159262,-105.141041
Shonto   AZ,1.899E7,36.61594,-110.647743
Oakland   MS,2.49E7,34.075552,-89.887748
Camden   MO,6.799E7,39.204806,-94.025913
Rochester   MN,5.974E7,44.010545,-92.397276
81080   CO,2.908E7,38.438391,-102.108268
Wantagh   NY,1.0868E8,40.684998,-73.51033
Newtown   MO,6.799E7,40.361227,-93.307279
Etna   WY,9830000.0,43.138606,-111.015996
Sugar   CO,2.908E7,38.244368,-103.655557
Langley   KY,5.504E7,37.538079,-82.797648
Genoa   WI,4.836E7,42.532276,-88.348456
Yellow   CO,2.908E7,37.499526,-108.785167
Porterville   CA,1.0137E8,36.068636,-119.031549
Arlington   SD,2.632E7,44.366769,-97.068734
Bayside   TX,1.1383E8,28.096758,-97.210643
York   PA,9.806E7,39.94943,-76.712998
Rockville   MD,2.948E7,39.049628,-77.120416
Elmwood   WI,4.836E7,44.756088,-92.202195
East   NY,1.0868E8,42.433028,-73.49026
Winslow   AR,3.956E7,35.831206,-94.118657
West   OH,6.854E7,39.689617,-84.21626
Liberty   MS,2.49E7,31.138427,-90.713349
Dallas   TX,1.1383E8,32.711415,-96.838711
Howell   NJ,3.691E7,40.148096,-74.213683
Austin   TX,1.1383E8,30.263817,-97.716589
Orrstown   PA,9.806E7,40.07305,-77.639762
Moran   MI,5.905E7,46.044106,-85.007835
Vernon   CA,1.0137E8,33.997344,-118.235365
Chicago   IL,8.537E7,41.87845,-87.632999
Whitehall   OH,6.854E7,39.967146,-82.878275
Faber   VA,5.66E7,37.847545,-78.756495
Mooers   NY,1.0868E8,44.959244,-73.583413
Los   CA,1.0137E8,34.081785,-118.175323
Hervey   IL,8.537E7,39.778883,-88.870207
Canton   NY,1.0868E8,44.592442,-75.162792
Goldsmith   TX,1.1383E8,31.95412,-102.625047
Maple   MN,5.974E7,44.978686,-93.700214
Butztown   PA,9.806E7,40.65168,-75.35823
Raleigh   NC,4.835E7,35.772701,-78.632439
Laird   CO,2.908E7,40.104917,-102.233751
Como   MS,2.49E7,34.513728,-89.915508
Pine   KY,5.504E7,37.774872,-83.632059
Drakes   VA,5.66E7,36.968767,-78.561542
Malden   WV,4.44E7,38.30028,-81.536813
Medora   IN,4.646E7,38.825505,-86.189733
Los   CA,1.0137E8,34.028972,-118.315173
Atwood   TN,3.994E7,35.966345,-88.624656
Montrose   NY,1.0868E8,41.249585,-73.944593
Dallas   TX,1.1383E8,32.996848,-96.792113
Mexican   NM,1.856E7,35.783727,-108.818964
Phoenix   AZ,1.899E7,33.456373,-112.128368
Richlands   VA,5.66E7,37.094051,-81.812286
Stilwell   KS,4.912E7,38.790157,-94.664282
Salem   KY,5.504E7,37.255346,-88.271139
Emmons   MN,5.974E7,43.508851,-93.482441
Dewitt   KY,5.504E7,36.8738,-83.73156
Wylliesburg   VA,5.66E7,36.838968,-78.612655
Maeystown   IL,8.537E7,38.24112,-90.20178
Earlton   NY,1.0868E8,42.352689,-73.906222
Applegate   MI,5.905E7,43.361899,-82.647865
Atlanta   GA,4.41E7,33.884245,-84.376091
Castle   TX,1.1383E8,29.513406,-98.522679
Ingalls   AR,3.956E7,33.422207,-92.127714
Plymouth   PA,9.806E7,40.107735,-75.279559
Big   AL,3.798E7,34.612859,-86.466577
Tightwad   MO,6.799E7,38.368811,-93.758906
Rural   NC,4.835E7,36.229251,-80.293643
West   IL,8.537E7,37.897914,-88.930724
Stuart   IA,6.272E7,41.518643,-94.304563
Harrisburg   NE,3.828E7,41.55306,-103.711141
Mountain   ID,1.691E7,43.139223,-115.696334
Elma   WA,3.269E7,47.005813,-123.39969
Leroy   AL,3.798E7,31.491021,-87.968672
Chicora   PA,9.806E7,40.945768,-79.746237
West   IL,8.537E7,40.245184,-91.249568
Windsor   WI,4.836E7,43.214121,-89.341469
Zoe   KY,5.504E7,37.666371,-83.668778
Hennepin   IL,8.537E7,41.235154,-89.321791
Richmond   NY,1.0868E8,40.698171,-73.834484
Mount   WV,4.44E7,38.877455,-81.119473
Neponset   IL,8.537E7,41.290457,-89.794382
Antlers   OK,3.887E7,34.234923,-95.625412
Clayton   IL,8.537E7,40.013342,-90.955394
Wayland   MI,5.905E7,42.664268,-85.619112
Hughesville   MO,6.799E7,38.84944,-93.215895
Rosemont   IL,8.537E7,42.015116,-87.897882
Nathrop   CO,2.908E7,38.710343,-106.116576
Mohnton   PA,9.806E7,40.258442,-75.98332
Woodbury   MN,5.974E7,44.916195,-92.951413
San   CA,1.0137E8,37.791687,-122.418579
Smyrna   ME,2.69E7,46.146412,-68.206363
Amston   CT,1.814E7,41.628969,-72.364601
Phoenix   AZ,1.899E7,33.449056,-112.197245
Gurley   NE,3.828E7,41.28771,-102.982325
Woodridge   IL,8.537E7,41.751755,-88.04885
Somerville   TN,3.994E7,35.277218,-89.391813
Russellville   AR,3.956E7,35.284208,-93.131476
Cheyenne   WY,9830000.0,41.143719,-104.796234
Woden   IA,6.272E7,43.222564,-93.910925
Shinglehouse   PA,9.806E7,41.957176,-78.19062
Mount   OR,2.66E7,45.073727,-122.785611
Saint   FL,5.589E7,27.817621,-82.677612
Sharon   KS,4.912E7,37.249239,-98.414168
Osage   WY,9830000.0,43.998982,-104.4226
Independence   LA,3.207E7,30.635148,-90.527685
Barton   MD,2.948E7,39.533135,-79.02813
Nettleton   MS,2.49E7,34.082065,-88.605201
Huntington   CA,1.0137E8,33.719111,-118.045142
Kings   NY,1.0868E8,40.886121,-73.243763
Basye   VA,5.66E7,38.795806,-78.767363
Altamont   NY,1.0868E8,42.70627,-74.019339
New   IL,8.537E7,37.899907,-88.128458
Malo   WA,3.269E7,48.81862,-118.623712
Jameson   MO,6.799E7,40.004615,-93.959747
Viking   MN,5.974E7,48.234881,-96.474926
Bryant   ME,2.69E7,44.395714,-70.643468
Westlake   CA,1.0137E8,34.191884,-118.830601
Banner   MS,2.49E7,34.094911,-89.415383
Rentz   GA,4.41E7,32.363834,-82.913987
Bloomingdale   OH,6.854E7,40.3742,-80.807214
Orlando   WV,4.44E7,38.885349,-80.560122
East   VT,1.602E7,42.950508,-72.783032
Middletown   PA,9.806E7,40.204086,-76.733127
Reno   NV,7190000.0,39.526812,-119.811275
Independence   MO,6.799E7,39.073099,-94.353284
Hodgen   OK,3.887E7,34.753757,-94.63908
Rock   NY,1.0868E8,41.613351,-74.587223
Crystal   ND,2.665E7,48.592387,-97.673846
Montrose   CO,2.908E7,38.46783,-107.875182
Youngstown   OH,6.854E7,41.123686,-80.653887
Scott   CA,1.0137E8,41.77364,-122.988183
Saint   GA,4.41E7,31.16916,-81.382421
Newark   DE,3480000.0,39.701129,-75.737534
Lacona   NY,1.0868E8,43.642883,-76.050335
Morgan   PA,9.806E7,40.360433,-80.154064
Milanville   PA,9.806E7,41.649208,-75.08818
Summersville   KY,5.504E7,37.34186,-85.619376
Midland   TX,1.1383E8,31.989636,-102.06261
Martinsdale   MT,2.126E7,46.458149,-110.432397
Garden   CA,1.0137E8,38.866495,-120.856672
Green   KY,5.504E7,37.368938,-83.780693
Ladera   CA,1.0137E8,37.378859,-122.208131
Trilla   IL,8.537E7,39.385286,-88.345698
Lancaster   TN,3.994E7,36.09542,-85.855095
Rankin   IL,8.537E7,40.455911,-87.888355
Talkeetna   AK,1.371E7,62.260516,-150.110097
Langley   AR,3.956E7,34.314035,-93.850942
Alvordton   OH,6.854E7,41.662489,-84.435533
Beaumont   TX,1.1383E8,30.068567,-94.175541
Bronx   NY,1.0868E8,40.900029,-73.862194
Hinton   IA,6.272E7,42.604046,-96.305033
Walpole   ME,2.69E7,43.946235,-69.55165
Lake   NC,4.835E7,35.446447,-82.175203
Mission   KS,4.912E7,39.031944,-94.631806
Enosburg   VT,1.602E7,44.898491,-72.791037
Sloans   KY,5.504E7,36.968617,-84.376201
Baxley   GA,4.41E7,31.783663,-82.348643
Fence   NM,1.856E7,34.734385,-108.693392
Danvers   MA,3.219E7,42.569402,-70.942461
Iowa   IA,6.272E7,42.513756,-93.270943
Nichols   IA,6.272E7,41.476634,-91.293116
Toledo   OH,6.854E7,41.704507,-83.489203
Stem   NC,4.835E7,36.21004,-78.70012
Glenside   PA,9.806E7,40.10959,-75.154964
Safford   AZ,1.899E7,32.829491,-109.626641
Pleasantville   IA,6.272E7,41.373836,-93.271206
Deer   AR,3.956E7,35.852982,-93.317388
Electric   WA,3.269E7,47.926446,-119.036728
Cranfills   TX,1.1383E8,31.781071,-97.78537
Nantucket   MA,3.219E7,41.272529,-70.093216
Dassel   MN,5.974E7,45.103208,-94.330475
Port   FL,5.589E7,27.260595,-80.477052
Pasadena   CA,1.0137E8,34.150997,-118.088905
Benld   IL,8.537E7,39.093903,-89.803057
Shannon   NC,4.835E7,34.898762,-79.180617
Memphis   TN,3.994E7,35.148277,-89.972895
Columbia   MD,2.948E7,39.214103,-76.878807
Bon   TX,1.1383E8,30.687557,-93.766465
Cumberland   IN,4.646E7,39.792219,-85.983826
Armstrong   MO,6.799E7,39.256585,-92.708976
Affton   MO,6.799E7,38.550594,-90.325304
Lake   FL,5.589E7,28.073963,-82.726573
Southside   FL,5.589E7,27.966284,-82.007236
Flower   TX,1.1383E8,33.038268,-97.074501
Cazenovia   IL,8.537E7,40.871082,-89.370399
Newport   VA,5.66E7,37.131684,-76.532125
Phoenix   AZ,1.899E7,33.502117,-112.030496
Omaha   NE,3.828E7,41.287854,-96.149462
Raleigh   NC,4.835E7,35.707569,-78.656265
Whick   KY,5.504E7,37.41022,-83.374707
Point   NY,1.0868E8,44.326982,-75.930619
Daniels   MD,2.948E7,39.258216,-76.803929
Galena   TX,1.1383E8,29.739204,-95.240001
Saint   WV,4.44E7,38.37743,-81.830463
New   NY,1.0868E8,40.718511,-74.002529
Ventress   LA,3.207E7,30.681404,-91.403257
Dehue   WV,4.44E7,37.866513,-81.872699
Elizabeth   MN,5.974E7,46.406218,-96.085093
Nottingham   MD,2.948E7,39.391412,-76.487106
Portage   IN,4.646E7,41.567201,-87.175689
Cairo   NE,3.828E7,41.000183,-98.616538
Palmer   NE,3.828E7,41.178757,-98.241146
Astoria   IL,8.537E7,40.231144,-90.344254
Saint   AK,1.371E7,63.47759,-162.109141
River   IL,8.537E7,41.895064,-87.8159
Elizabeth   NJ,3.691E7,40.65652,-74.221544
Rising   NE,3.828E7,41.208219,-97.303174
Texola   OK,3.887E7,35.224977,-99.98218
Crystal   MN,5.974E7,45.060299,-93.376908
Gilman   VT,1.602E7,44.413985,-71.71786
Bivalve   MD,2.948E7,38.295337,-75.89141
Santa   CA,1.0137E8,34.034875,-118.503011
Cusseta   AL,3.798E7,32.803194,-85.215791
Clearmont   WY,9830000.0,44.66101,-106.458071
Robert   TX,1.1383E8,31.895091,-100.510366
Cumberland   IN,4.646E7,39.792219,-85.983826
Catoosa   OK,3.887E7,36.17208,-95.727321
Fredericksburg   VA,5.66E7,38.379627,-77.534892
Ceres   VA,5.66E7,37.00456,-81.364272
Briggsville   WI,4.836E7,43.675865,-89.580259
New   LA,3.207E7,30.005637,-90.064409
Saint   LA,3.207E7,30.027598,-90.860549
Whiteside   TN,3.994E7,35.066289,-85.398499
Anniston   AL,3.798E7,33.719124,-85.838904
Falls   TX,1.1383E8,28.981413,-98.015632
Rosedale   VA,5.66E7,36.973981,-81.888793
Barboursville   WV,4.44E7,38.389272,-82.295973
Pflugerville   TX,1.1383E8,30.442133,-97.629895
Richmond   CA,1.0137E8,37.940039,-122.36201
Stockton   NY,1.0868E8,42.318195,-79.375792
Knights   CA,1.0137E8,37.775323,-120.849474
Hartland   ME,2.69E7,44.878155,-69.471754
Allegan   MI,5.905E7,42.525609,-85.86608
Wichita   KS,4.912E7,37.54434,-97.32237
Twin   AR,3.956E7,35.291042,-92.432952
New   ME,2.69E7,44.645803,-70.013927
Groesbeck   OH,6.854E7,39.207995,-84.579225
Perry   NY,1.0868E8,42.722852,-78.005882
Boons   KY,5.504E7,37.821609,-82.67043
Mount   NC,4.835E7,35.227447,-79.98709
Elbert   TX,1.1383E8,33.015687,-99.055214
New   ME,2.69E7,44.885571,-70.092857
Harlingen   TX,1.1383E8,26.183069,-97.746771
Zillah   WA,3.269E7,46.415777,-120.266161
Southfield   MI,5.905E7,42.477676,-83.288295
Mountain   AK,1.371E7,62.158913,-163.883822
S   NY,1.0868E8,40.675379,-73.815773
Townsend   MA,3.219E7,42.652511,-71.689646
Beaumont   TX,1.1383E8,30.113201,-94.119698
Hanapepe   HI,5410000.0,21.915644,-159.592022
O   TX,1.1383E8,33.374869,-99.847303
Bloomington   MN,5.974E7,44.837284,-93.276034
Andersonville   TN,3.994E7,36.191514,-84.054399
Crestview   FL,5.589E7,30.77061,-86.553678
West   IA,6.272E7,40.714986,-91.439733
Gassville   AR,3.956E7,36.317525,-92.473637
Inman   NE,3.828E7,42.376149,-98.538366
Sunburg   MN,5.974E7,45.358316,-95.204915
Wildwood   CA,1.0137E8,40.316528,-122.918013
Lone   OK,3.887E7,34.980584,-99.250161
Howard   WI,4.836E7,44.530146,-88.045262
Tensed   ID,1.691E7,47.170735,-116.902716
Triplett   NC,4.835E7,36.181685,-81.489649
Silver   TN,3.994E7,36.100562,-85.733801
Durbin   ND,2.665E7,46.867546,-97.051366
Sturgeon   MN,5.974E7,46.383685,-92.818246
Edna   KY,5.504E7,37.799813,-83.179973
Pencil   AR,3.956E7,34.639946,-93.742947
Jamaica   NY,1.0868E8,40.676347,-73.796596
Orchard   IA,6.272E7,43.235459,-92.719979
Mcnary   OR,2.66E7,45.915725,-119.313715
Cherry   CO,2.908E7,39.646027,-104.990022
Sheboygan   WI,4.836E7,43.740981,-87.724667
Spartansburg   PA,9.806E7,41.793648,-79.684916
Kathleen   GA,4.41E7,32.467218,-83.61284
Federal   CO,2.908E7,39.840562,-105.007985
South   WI,4.836E7,43.610934,-88.509729
Ailey   GA,4.41E7,32.214262,-82.47619
Paulden   AZ,1.899E7,35.03129,-112.544105
Leonardo   NJ,3.691E7,40.417704,-74.062265
Howe   IN,4.646E7,41.728594,-85.472746
Mitchellville   MD,2.948E7,38.919588,-76.80527
Henrietta   TX,1.1383E8,33.819609,-98.259976
Normandy   MO,6.799E7,38.705086,-90.296719
Scott   OH,6.854E7,40.989238,-84.584455
Butztown   PA,9.806E7,40.65168,-75.35823
Palatine   IL,8.537E7,42.145775,-88.022998
Lighthouse   FL,5.589E7,26.278698,-80.112439
Janesville   IA,6.272E7,42.646515,-92.479096
Stephens   GA,4.41E7,33.771471,-83.115902
Floral   NY,1.0868E8,40.723586,-73.70576
New   IN,4.646E7,41.705115,-86.483827
Welch   TX,1.1383E8,32.893827,-102.106792
Dewitt   IL,8.537E7,40.184759,-88.763672
Ozone   NY,1.0868E8,40.676854,-73.844778
Hoven   SD,2.632E7,45.227799,-99.776286
Kailua   HI,5410000.0,19.653053,-155.979809
Gillett   WI,4.836E7,44.901753,-88.324221
Scuddy   KY,5.504E7,37.212182,-83.093242
Plainville   CT,1.814E7,41.672653,-72.864373
Austin   TX,1.1383E8,30.244433,-97.915968
Allen   MI,5.905E7,42.25223,-83.212001
Manlius   NY,1.0868E8,42.990441,-75.970345
Rochester   NY,1.0868E8,43.155823,-77.61419
Holland   NY,1.0868E8,43.248406,-75.253506
Geddes   SD,2.632E7,43.259677,-98.69256
West   WV,4.44E7,38.288571,-82.184348
Amiret   MN,5.974E7,44.325134,-95.719046
Holly   AR,3.956E7,34.599294,-91.184376
Cana   VA,5.66E7,36.59574,-80.670452
Foster   RI,4440000.0,41.781455,-71.718748
Clare   IL,8.537E7,42.027045,-88.837832
Marina   CA,1.0137E8,36.684922,-121.793383
Emerald   PA,9.806E7,40.740695,-75.621612
Statts   WV,4.44E7,38.74076,-81.615579
Firth   ID,1.691E7,43.302066,-112.158819
Beaver   NE,3.828E7,40.129036,-99.806532
Brandon   MS,2.49E7,32.303803,-89.964029
Des   IA,6.272E7,41.625475,-93.673611
White   NY,1.0868E8,41.790042,-74.828065
Gorham   KS,4.912E7,38.872226,-99.01116
Miami   FL,5.589E7,25.762852,-80.189506
Shoshone   ID,1.691E7,42.947353,-114.382176
Tulsa   OK,3.887E7,36.180296,-95.952492
La   NM,1.856E7,32.977449,-105.953397
Dallas   TX,1.1383E8,32.831029,-96.769219
Hewittsville   IL,8.537E7,39.554516,-89.313357
Magnolia   KY,5.504E7,37.416464,-85.730823
Suffolk   VA,5.66E7,36.854427,-76.466397
Dayton   OH,6.854E7,39.782148,-84.237297
Ulman   MO,6.799E7,38.134141,-92.463979
Mobile   AL,3.798E7,30.672899,-88.100909
Brier   WA,3.269E7,47.811825,-122.287789
Haywood   VA,5.66E7,38.46861,-78.179759
Enid   OK,3.887E7,36.402842,-97.862257
Manzanola   CO,2.908E7,38.110861,-103.876602
Deer   TN,3.994E7,36.217584,-84.819074
Venetie   AK,1.371E7,67.010446,-146.413723
South   CA,1.0137E8,38.916976,-119.986469
Lawrenceville   PA,9.806E7,41.978266,-77.11355
South   NC,4.835E7,36.453576,-76.303284
Wharton   TX,1.1383E8,29.320488,-96.085828
Uvalde   TX,1.1383E8,29.217238,-99.793074
Florence   CO,2.908E7,38.385016,-105.123233
Oolitic   IN,4.646E7,38.89378,-86.524617
Dogwood   TX,1.1383E8,30.775133,-94.425494
Port   FL,5.589E7,27.022815,-82.110782
Houston   TX,1.1383E8,29.572084,-95.130292
La   KS,4.912E7,38.343402,-94.759264
Pittsville   WI,4.836E7,44.43747,-90.189174
New   OH,6.854E7,39.338295,-82.222513
Saint   MO,6.799E7,38.618534,-90.256381
Stanton   TN,3.994E7,35.448171,-89.33263
Phenix   AL,3.798E7,32.470647,-85.018118
40163   KY,5.504E7,37.911025,-86.497033
Hinton   IA,6.272E7,42.604046,-96.305033
Cuba   IL,8.537E7,40.4995,-90.181055
Cowen   WV,4.44E7,38.413273,-80.535807
Geneva   FL,5.589E7,28.750299,-81.11137
Charleston   AR,3.956E7,35.311502,-94.03368
Dawson   NE,3.828E7,40.137697,-95.834097
Calvin   KY,5.504E7,36.707818,-83.737144
Brewster   NE,3.828E7,41.946705,-99.829196
Bear   PA,9.806E7,41.97006,-79.461365
Wimauma   FL,5.589E7,27.701497,-82.315136
Phoenix   AZ,1.899E7,33.390475,-112.03126
Citra   FL,5.589E7,29.39182,-82.106222
Ruffin   NC,4.835E7,36.442763,-79.560551
El   TX,1.1383E8,31.804795,-106.456754
Margate   NJ,3.691E7,39.328621,-74.509038
New   NH,1.457E7,43.414501,-71.985674
Altamont   IL,8.537E7,39.063449,-88.748092
Atwood   KS,4.912E7,39.792607,-101.031766
Halma   MN,5.974E7,48.666895,-96.596899
Belvidere   SD,2.632E7,43.886031,-101.238691
Pacific   CA,1.0137E8,34.054097,-118.536874
Olivet   MI,5.905E7,42.445947,-84.897312
Miami   NM,1.856E7,36.28955,-104.811769
Liverpool   IL,8.537E7,40.411574,-90.038972
Galesburg   ND,2.665E7,47.27779,-97.374599
Norwood   NY,1.0868E8,44.747193,-74.999188
Saint   AZ,1.899E7,34.501008,-109.379617
Scottsville   NY,1.0868E8,43.02462,-77.774256
Broken   OK,3.887E7,34.026991,-94.762296
Goldston   NC,4.835E7,35.56428,-79.33852
Candor   NY,1.0868E8,42.206274,-76.332196
Saint   IL,8.537E7,40.120736,-88.047232
Byfield   MA,3.219E7,42.756792,-70.935053
Redstone   MT,2.126E7,48.835511,-104.935259
Mac   ME,2.69E7,43.819649,-69.747424
El   TX,1.1383E8,31.853334,-106.438135
Montrose   IL,8.537E7,39.157274,-88.33497
East   PA,9.806E7,41.5691,-79.385483
Akron   PA,9.806E7,40.157086,-76.205295
Bainbridge   WA,3.269E7,47.645048,-122.531297
Smyrna   GA,4.41E7,33.879602,-84.502284
Floodwood   MN,5.974E7,46.907589,-92.916682
Grand   LA,3.207E7,29.22973,-90.008801
Perkins   WV,4.44E7,38.809049,-80.919336
South   NJ,3.691E7,40.863391,-74.045601
Early   TX,1.1383E8,31.704658,-98.975164
Downers   IL,8.537E7,41.803428,-88.013753
Bowdon   GA,4.41E7,33.537259,-85.25329
Princeton   LA,3.207E7,32.579089,-93.522577
Sesser   IL,8.537E7,38.089422,-89.057404
Lincoln   MT,2.126E7,46.957458,-112.66514
King   NC,4.835E7,36.295033,-80.355957
Fort   FL,5.589E7,26.104193,-80.125951
Shirleysburg   PA,9.806E7,40.316768,-77.870062
Montclair   NJ,3.691E7,40.81307,-74.216467
Downey   CA,1.0137E8,33.941612,-118.13062
41178   KY,5.504E7,38.267723,-83.271776
Newhall   CA,1.0137E8,34.381067,-118.582134
New   PA,9.806E7,40.880212,-76.986124
Eckerty   IN,4.646E7,38.318548,-86.605939
Blandinsville   IL,8.537E7,40.551585,-90.859521
Adams   OH,6.854E7,40.112941,-82.018807
Penllyn   PA,9.806E7,40.15939,-75.279656
Shoals   IN,4.646E7,38.679103,-86.776094
Marshall   MI,5.905E7,42.272047,-84.95828
Sudlersville   MD,2.948E7,39.182339,-75.849968
West   SC,2.41E7,34.751572,-83.039887
Bridgeport   CT,1.814E7,41.178382,-73.165048
Mc   KY,5.504E7,37.544986,-82.2558
Atlanta   GA,4.41E7,33.820609,-84.354867
Lexington   MA,3.219E7,42.445384,-71.225916
Grulla   TX,1.1383E8,26.293714,-98.596041
Oklahoma   OK,3.887E7,35.579693,-97.469127
Crowheart   WY,9830000.0,43.371569,-109.296043
Kansas   MO,6.799E7,39.3426,-94.644643
Wittenberg   MO,6.799E7,37.679256,-89.564261
Hillsboro   TN,3.994E7,35.369933,-85.972422
Peshtigo   WI,4.836E7,45.045778,-87.729795
South   VT,1.602E7,43.560137,-72.538383
Armstrong   OH,6.854E7,39.956304,-80.882181
Lake   IN,4.646E7,41.568629,-87.262209
Branson   MO,6.799E7,36.694658,-93.372182
Wichita   KS,4.912E7,37.588466,-97.460561
Scott   AR,3.956E7,34.694215,-92.11566
Texhoma   OK,3.887E7,36.52529,-101.839351
New   ME,2.69E7,44.645803,-70.013927
Louisville   KY,5.504E7,38.191319,-85.784707
Crawford   TX,1.1383E8,31.559765,-97.389992
Arkansas   AR,3.956E7,33.614328,-91.232529
Denmark   WI,4.836E7,44.359392,-87.827036
Johnstown   NE,3.828E7,42.530857,-100.045322
Columbia   OR,2.66E7,45.892474,-122.812174
Merrimac   WI,4.836E7,43.385527,-89.632254
San   TX,1.1383E8,29.440039,-98.458983
Graham   AL,3.798E7,33.462976,-85.334034
Fairhope   AL,3.798E7,30.50116,-87.883546
Rolling   MS,2.49E7,32.873317,-90.883274
Madison   CA,1.0137E8,38.680164,-121.972129
Dunbar   PA,9.806E7,39.972171,-79.64305
Southington   CT,1.814E7,41.605221,-72.872681
Wabasha   MN,5.974E7,44.370273,-92.036058
Apollo   FL,5.589E7,27.771553,-82.410199
Blue   NY,1.0868E8,40.750089,-73.035213
Vernon   OK,3.887E7,35.208526,-95.895795
Pahala   HI,5410000.0,19.207898,-155.481506
Mechanicsville   PA,9.806E7,40.343821,-75.062962
Rushville   OH,6.854E7,39.767375,-82.427981
Forest   IN,4.646E7,40.375728,-86.320098
58245   ND,2.665E7,48.143406,-97.454697
Dunkel   IL,8.537E7,39.388124,-89.078165
Wichita   KS,4.912E7,37.633333,-97.424985
Milwaukee   WI,4.836E7,43.068545,-87.971466
Steele   NE,3.828E7,40.042492,-96.990712
Lake   WI,4.836E7,42.588111,-88.455379
Plainfield   NH,1.457E7,43.551919,-72.270398
Gilman   MO,6.799E7,40.145005,-93.831979
Sneads   FL,5.589E7,30.727619,-84.933655
Dunnigan   CA,1.0137E8,38.893671,-121.996577
Fallbrook   CA,1.0137E8,33.369015,-117.228952
Wallops   VA,5.66E7,37.827338,-75.506503
Juliaetta   ID,1.691E7,46.575376,-116.718849
Lawrence   IN,4.646E7,39.836969,-86.048945
Big   KY,5.504E7,37.14168,-83.633095
Watson   MO,6.799E7,40.477985,-95.61931
Bagley   WI,4.836E7,42.920734,-91.068502
Centerville   MO,6.799E7,37.428537,-90.975657
Scottdale   GA,4.41E7,33.793396,-84.258521
Weeks   ME,2.69E7,44.407543,-69.541738
Austin   TX,1.1383E8,30.18764,-97.74723
Caldwell   WV,4.44E7,37.773488,-80.377298
Pomona   CA,1.0137E8,34.066168,-117.776312
Jayton   TX,1.1383E8,33.251774,-100.582482
Wilsons   VA,5.66E7,37.115678,-77.835193
Bowman   SC,2.41E7,33.347466,-80.670868
Lenhartsville   PA,9.806E7,40.575284,-75.850002
